confirmationPriority,verificationId,candidateId,name,address,latitude,longitude,facilityCategory,targetRouteIds,distanceToRouteMeters,optimisticImprovementMeters,lowerBoundImprovementMeters,conservativeProxyImprovementMeters,top5AppearanceRate,stabilityDescription,selectionReason,caution,publiclyAccessible,seatingAvailable,seatingUsableForRest,indoorOrCovered,drinkingWaterAvailable,toiletAvailable,wheelchairAccessible,openingHoursObserved,accessRestrictions,verifiedAt,verifier,verificationMethod,evidenceReference,notes
1,fv-shinjuku-facility-131041000179,shinjuku-facility-131041000179,新宿観光振興協会,東京都新宿区西新宿6-8-2区立産業会館3階,35.693465,139.690394,public_service_facility,step_avoiding,197,300,103,0,1,片道直線控除後は改善するが、往復直線proxyでは改善が消える。検討した15設定すべてで上位5。,一般利用目的が明確な公共施設を、改善仮定の感度と実際の休憩条件を照合する基準地点として確認する。,候補選定は、現地で休憩できることや現在利用できることを保証しない。,,,,,,,,,,,,,,
2,fv-daredemo-accommodation-西鉄イン新宿-131041-35694278-13969433,daredemo-accommodation-西鉄イン新宿-131041-35694278-13969433,西鉄イン新宿,東京都新宿区西新宿7-23-2,35.694278,139.69433,private_hospitality,step_avoiding,200,541,341,141,1,検討した迂回条件でも改善が残る（往復直線proxy控除後も正）。検討した15設定すべてで上位5。,往復直線proxyを控除しても意味のある改善が残り、移動改善効果を現地条件と照合する価値がある。,民間施設の掲載や候補選定は、自由な入館、着席、営業中、休憩可能を意味しない。,,,,,,,,,,,,,,
3,fv-daredemo-accommodation-ヒルトン東京-131041-356924779-1396913787,daredemo-accommodation-ヒルトン東京-131041-356924779-1396913787,ヒルトン東京,東京都新宿区西新宿6-6-2,35.692478,139.691379,private_hospitality,step_avoiding,57,300,243,186,0.8,検討した迂回条件でも改善が残る（往復直線proxy控除後も正）。検討した15設定の80%で上位5。,往復直線proxyを控除しても意味のある改善が残り、移動改善効果を現地条件と照合する価値がある。,民間施設の掲載や候補選定は、自由な入館、着席、営業中、休憩可能を意味しない。,,,,,,,,,,,,,,
4,fv-daredemo-accommodation-京王プラザホテル-131041-35689954-139694016,daredemo-accommodation-京王プラザホテル-131041-35689954-139694016,京王プラザホテル,東京都新宿区西新宿2-2-1,35.689954,139.694016,private_hospitality,standard,78,305,227,149,0.2667,検討した迂回条件でも改善が残る（往復直線proxy控除後も正）。検討した15設定の26.67%で上位5（設定により順位が変動）。,往復直線proxyを控除しても意味のある改善が残り、移動改善効果を現地条件と照合する価値がある。,民間施設の掲載や候補選定は、自由な入館、着席、営業中、休憩可能を意味しない。,,,,,,,,,,,,,,
5,fv-daredemo-shopping-ヨドバシカメラ新宿西口本店-131041-35689815-139697891,daredemo-shopping-ヨドバシカメラ新宿西口本店-131041-35689815-139697891,ヨドバシカメラ新宿西口本店,東京都新宿区西新宿1-11-1,35.689815,139.697891,commercial_facility,wheelchair_profile,96,129,33,0,1,片道直線控除後の改善が閾値付近で、往復直線proxyでは改善が消える。検討した15設定すべてで上位5。,片道控除後の改善が既存閾値をわずかに上回る境界候補で、迂回仮定の妥当性を現地で検証する価値がある。,民間施設の掲載や候補選定は、自由な入館、着席、営業中、休憩可能を意味しない。,,,,,,,,,,,,,,
